<?xml version='1.0' encoding='UTF-8'?>
<kml xmlns='http://www.opengis.net/kml/2.2'>
	<Document>
		<name>Praticiens</name>
		<Placemark>
			<styleUrl>#icon-959-4186F0</styleUrl>
			<name>Interaction Design Sight et Lab</name>
			<description><![CDATA[Nicolas Gaudron et Virginia Cruz]]></description>
			<Point>
				<coordinates>2.3393899999999803,48.869137,0.0</coordinates>
			</Point>
		</Placemark>
		<Placemark>
			<styleUrl>#icon-959-4186F0</styleUrl>
			<name>FaberNovel</name>
			<Point>
				<coordinates>2.3659149999999727,48.868428,0.0</coordinates>
			</Point>
		</Placemark>
		<Placemark>
			<styleUrl>#icon-959-4186F0</styleUrl>
			<name>Orange Innovation</name>
			<Point>
				<coordinates>2.274727999999982,48.825086,0.0</coordinates>
			</Point>
		</Placemark>
		<Placemark>
			<styleUrl>#icon-959-4186F0</styleUrl>
			<name>EDF R&amp;D</name>
			<Point>
				<coordinates>2.271417000000042,48.792486,0.0</coordinates>
			</Point>
		</Placemark>
		<Placemark>
			<styleUrl>#icon-959-4186F0</styleUrl>
			<name>Bell labs Alcatel-Lucent</name>
			<Point>
				<coordinates>2.2292360000000144,48.649541,0.0</coordinates>
			</Point>
		</Placemark>
		<Placemark>
			<styleUrl>#icon-959-4186F0</styleUrl>
			<name>BERG</name>
			<Point>
				<coordinates>-0.08716200000003482,51.527391,0.0</coordinates>
			</Point>
		</Placemark>
		<Placemark>
			<styleUrl>#icon-959-4186F0</styleUrl>
			<name>IDEO London</name>
			<Point>
				<coordinates>-0.1097819999999956,51.522113,0.0</coordinates>
			</Point>
		</Placemark>
		<Placemark>
			<styleUrl>#icon-959-4186F0</styleUrl>
			<name>Method London</name>
			<Point>
				<coordinates>-0.07622400000002472,51.524127,0.0</coordinates>
			</Point>
		</Placemark>
		<Placemark>
			<styleUrl>#icon-959-4186F0</styleUrl>
			<name>Fjord London</name>
			<Point>
				<coordinates>-0.14068700000007084,51.516798,0.0</coordinates>
			</Point>
		</Placemark>
		<Placemark>
			<styleUrl>#icon-959-4186F0</styleUrl>
			<name>ReD Associates</name>
			<Point>
				<coordinates>12.580949000000032,55.682777,0.0</coordinates>
			</Point>
		</Placemark>
		<Placemark>
			<styleUrl>#icon-959-4186F0</styleUrl>
			<name>Adaptive Path</name>
			<Point>
				<coordinates>4.887416099999996,52.3733727,0.0</coordinates>
			</Point>
		</Placemark>
		<Placemark>
			<styleUrl>#icon-959-4186F0</styleUrl>
			<name>Deutsche Telekom AG</name>
			<Point>
				<coordinates>7.129407000000015,50.708094,0.0</coordinates>
			</Point>
		</Placemark>
		<Placemark>
			<styleUrl>#icon-959-4186F0</styleUrl>
			<name>IDEO Munich</name>
			<Point>
				<coordinates>11.595294999999965,48.130493,0.0</coordinates>
			</Point>
		</Placemark>
		<Placemark>
			<styleUrl>#icon-959-4186F0</styleUrl>
			<name>Experientia</name>
			<Point>
				<coordinates>7.686919999999986,45.068982,0.0</coordinates>
			</Point>
		</Placemark>
		<Placemark>
			<styleUrl>#icon-959-4186F0</styleUrl>
			<name>Frog Design</name>
			<Point>
				<coordinates>9.18714,45.489774,0.0</coordinates>
			</Point>
		</Placemark>
		<Placemark>
			<styleUrl>#icon-959-4186F0</styleUrl>
			<name>Smart Design</name>
			<Point>
				<coordinates>2.1764929999999367,41.389301,0.0</coordinates>
			</Point>
		</Placemark>
		<Placemark>
			<styleUrl>#icon-959-4186F0</styleUrl>
			<name>Fjord Madrid</name>
			<Point>
				<coordinates>-3.694207199999937,40.4092044,0.0</coordinates>
			</Point>
		</Placemark>
		<Placemark>
			<styleUrl>#icon-959-4186F0</styleUrl>
			<name>Fjord Paris</name>
			<Point>
				<coordinates>2.354514999999992,48.865725,0.0</coordinates>
			</Point>
		</Placemark>
		<Style id='icon-959-4186F0'>
			<IconStyle>
				<color>ffF08641</color>
				<scale>1.1</scale>
				<Icon>
					<href>http://www.gstatic.com/mapspro/images/stock/959-wht-circle-blank.png</href>
				</Icon>
			</IconStyle>
		</Style>
	</Document>
</kml>